{
    "板橋區":[
        {
            "address":"倉後街1之13號",
            "id":"tpq0862",
            "location":{
                "lat":25.008856,
                "lng":121.45536
            },
            "name":"林園大廈中庭",
            "neighborhood":[
                "留侯里"
            ],
            "power":1
        },
        {
            "address":"文化路一段23號",
            "id":"tpq0863",
            "location":{
                "lat":25.0108477,
                "lng":121.4582632
            },
            "name":"板橋國小",
            "neighborhood":[
                "黃石里"
            ],
            "power":8
        },
        {
            "address":"府中路81號",
            "id":"tpq0864",
            "location":{
                "lat":25.009403,
                "lng":121.4574301
            },
            "name":"板橋慈惠宮（太歲殿）",
            "neighborhood":[
                "挹秀里"
            ],
            "power":1
        },
        {
            "address":"南雅西路一段64號",
            "id":"tpq0868",
            "location":{
                "lat":25.0051388,
                "lng":121.4537298
            },
            "name":"湳興第一市民活動中心",
            "neighborhood":[
                "湳興里"
            ],
            "power":1
        },
        {
            "address":"南雅西路一段154號",
            "id":"tpq0869",
            "location":{
                "lat":25.0075104,
                "lng":121.4526386
            },
            "name":"板橋清潔隊-後勤分隊",
            "neighborhood":[
                "湳興里"
            ],
            "power":2
        },
        {
            "address":"館前西路160巷2號",
            "id":"tpq0871",
            "location":{
                "lat":25.0088211,
                "lng":121.4527979
            },
            "name":"彬彬幼兒園",
            "neighborhood":[
                "湳興里"
            ],
            "power":1
        },
        {
            "address":"中興路63號2樓",
            "id":"tpq0872",
            "location":{
                "lat":25.007033,
                "lng":121.4552989
            },
            "name":"湳興市場二樓左側（新興市民活動中心）",
            "neighborhood":[
                "新興里"
            ],
            "power":2
        },
        {
            "address":"中正路80巷1弄7號",
            "id":"tpq0874",
            "location":{
                "lat":25.0147099,
                "lng":121.457149
            },
            "name":"上帝宮廟（原托兒所）",
            "neighborhood":[
                "社後里"
            ],
            "power":1
        },
        {
            "address":"大仁街33巷2號",
            "id":"tpq0875",
            "location":{
                "lat":25.017099,
                "lng":121.456053
            },
            "name":"社後第一市民活動中心",
            "neighborhood":[
                "社後里"
            ],
            "power":2
        },
        {
            "address":"中正路375巷48號",
            "id":"tpq0877",
            "location":{
                "lat":25.02027,
                "lng":121.4536
            },
            "name":"國光公園活動中心",
            "neighborhood":[
                "社後里"
            ],
            "power":1
        },
        {
            "address":"中正路325巷30號",
            "id":"tpq0878",
            "location":{
                "lat":25.0189665,
                "lng":121.4529247
            },
            "name":"國光國小",
            "neighborhood":[
                "香社里"
            ],
            "power":8
        },
        {
            "address":"中正路437號",
            "id":"tpq0883",
            "location":{
                "lat":25.0239742,
                "lng":121.454208
            },
            "name":"板橋國中",
            "neighborhood":[
                "中正里"
            ],
            "power":3
        },
        {
            "address":"大智街13號",
            "id":"tpq0889",
            "location":{
                "lat":25.0148322,
                "lng":121.4556064
            },
            "name":"自強基督教浸禮聖經會",
            "neighborhood":[
                "自強里"
            ],
            "power":1
        },
        {
            "address":"大智街77號",
            "id":"tpq0890",
            "location":{
                "lat":25.0154695,
                "lng":121.4533312
            },
            "name":"自立市民活動中心",
            "neighborhood":[
                "自立里"
            ],
            "power":2
        },
        {
            "address":"西門街5號",
            "id":"tpq0892",
            "location":{
                "lat":25.0114422,
                "lng":121.4558606
            },
            "name":"大觀書社（文昌祠）",
            "neighborhood":[
                "黃石里"
            ],
            "power":1
        },
        {
            "address":"光華街1號",
            "id":"tpq0893",
            "location":{
                "lat":25.011142,
                "lng":121.454036
            },
            "name":"光華市民活動中心",
            "neighborhood":[
                "光華里"
            ],
            "power":1
        },
        {
            "address":"光華街52號",
            "id":"tpq0894",
            "location":{
                "lat":25.01313,
                "lng":121.453807
            },
            "name":"光榮市民活動中心",
            "neighborhood":[
                "光榮里"
            ],
            "power":2
        },
        {
            "address":"國光路76號",
            "id":"tpq0896",
            "location":{
                "lat":25.017718,
                "lng":121.458363
            },
            "name":"國光市民活動中心",
            "neighborhood":[
                "國光里"
            ],
            "power":3
        },
        {
            "address":"中正路336之1號",
            "id":"tpq0899",
            "location":{
                "lat":25.020216252,
                "lng":121.455016136
            },
            "name":"港尾市民活動中心",
            "neighborhood":[
                "港尾里"
            ],
            "power":2
        },
        {
            "address":"英士路179號",
            "id":"tpq0901",
            "location":{
                "lat":25.0233131,
                "lng":121.4588092
            },
            "name":"文德國小",
            "neighborhood":[
                "幸福里"
            ],
            "power":11
        },
        {
            "address":"民權路202巷9弄39號",
            "id":"tpq0911",
            "location":{
                "lat":25.015625,
                "lng":121.459329
            },
            "name":"民權市民活動中心",
            "neighborhood":[
                "民權里"
            ],
            "power":1
        },
        {
            "address":"民權路202巷22號",
            "id":"tpq0912",
            "location":{
                "lat":25.016651,
                "lng":121.461078
            },
            "name":"慈惠幼兒園",
            "neighborhood":[
                "民權里"
            ],
            "power":1
        },
        {
            "address":"民權路202巷7弄28號",
            "id":"tpq0914",
            "location":{
                "lat":25.015027,
                "lng":121.458971
            },
            "name":"民安市民活動中心",
            "neighborhood":[
                "民安里"
            ],
            "power":1
        },
        {
            "address":"民權路202巷17弄70號",
            "id":"tpq0915",
            "location":{
                "lat":25.016628772,
                "lng":121.458347440
            },
            "name":"板橋和平堂教堂廣場",
            "neighborhood":[
                "建國里"
            ],
            "power":1
        },
        {
            "address":"復興街27號",
            "id":"tpq0916",
            "location":{
                "lat":25.0174242,
                "lng":121.4580494
            },
            "name":"民宅",
            "neighborhood":[
                "建國里"
            ],
            "power":1
        },
        {
            "address":"建國街32號",
            "id":"tpq0917",
            "location":{
                "lat":25.0169365,
                "lng":121.4581067
            },
            "name":"私立和平幼兒園",
            "neighborhood":[
                "建國里"
            ],
            "power":1
        },
        {
            "address":"光正街55號",
            "id":"tpq0918",
            "location":{
                "lat":25.0171851,
                "lng":121.4624119
            },
            "name":"接源堂辦公室",
            "neighborhood":[
                "漢生里"
            ],
            "power":1
        },
        {
            "address":"光正街52號",
            "id":"tpq0919",
            "location":{
                "lat":25.0176549,
                "lng":121.4617098
            },
            "name":"接源堂廟前廣場",
            "neighborhood":[
                "漢生里"
            ],
            "power":1
        },
        {
            "address":"光正街44號",
            "id":"tpq0920",
            "location":{
                "lat":25.0176489,
                "lng":121.46195
            },
            "name":"接源堂辦公處（新）",
            "neighborhood":[
                "漢生里"
            ],
            "power":1
        },
        {
            "address":"光正街57號",
            "id":"tpq0921",
            "location":{
                "lat":25.0171851,
                "lng":121.4624119
            },
            "name":"公館社區活動中心",
            "neighborhood":[
                "公舘里"
            ],
            "power":2
        },
        {
            "address":"文化路一段188巷56號",
            "id":"tpq0924",
            "location":{
                "lat":25.018452,
                "lng":121.4675654
            },
            "name":"中山國中",
            "neighborhood":[
                "新民里"
            ],
            "power":6
        },
        {
            "address":"新海路181號",
            "id":"tpq0930",
            "location":{
                "lat":25.0247941,
                "lng":121.4597502
            },
            "name":"新埔國中",
            "neighborhood":[
                "新海里"
            ],
            "power":9
        },
        {
            "address":"文化路一段313號",
            "id":"tpq0932",
            "location":{
                "lat":25.0210015,
                "lng":121.465198
            },
            "name":"致理技術學院（B12教室）",
            "neighborhood":[
                "忠誠里"
            ],
            "power":2
        },
        {
            "address":"文化路一段309號",
            "id":"tpq0934",
            "location":{
                "lat":25.0190604,
                "lng":121.4652166
            },
            "name":"健華新城活動中心",
            "neighborhood":[
                "忠誠里"
            ],
            "power":1
        },
        {
            "address":"陽明街206號",
            "id":"tpq0935",
            "location":{
                "lat":25.0256511,
                "lng":121.4625555
            },
            "name":"新埔國小",
            "neighborhood":[
                "新翠里"
            ],
            "power":11
        },
        {
            "address":"民生路二段89號之5（民生陸橋下）",
            "id":"tpq0940",
            "location":{
                "lat":25.017669055,
                "lng":121.471533179
            },
            "name":"介壽市民活動中心",
            "neighborhood":[
                "介壽里"
            ],
            "power":1
        },
        {
            "address":"自由路26巷28號",
            "id":"tpq0941",
            "location":{
                "lat":25.022262,
                "lng":121.466663
            },
            "name":"民宅",
            "neighborhood":[
                "新埔里"
            ],
            "power":2
        },
        {
            "address":"民生路二段56號之6（民生陸橋下）",
            "id":"tpq0943",
            "location":{
                "lat":25.017707944,
                "lng":121.472150087
            },
            "name":"華江市民活動中心",
            "neighborhood":[
                "華江里"
            ],
            "power":1
        },
        {
            "address":"莊敬路179號（中山公園內）",
            "id":"tpq0944",
            "location":{
                "lat":25.022927,
                "lng":121.471635
            },
            "name":"埤墘社區發展協會社區照顧關懷據點",
            "neighborhood":[
                "華江里"
            ],
            "power":3
        },
        {
            "address":"松江街63號",
            "id":"tpq0947",
            "location":{
                "lat":25.0288652,
                "lng":121.4684587
            },
            "name":"江翠國中",
            "neighborhood":[
                "文化里"
            ],
            "power":10
        },
        {
            "address":"文化路二段413號",
            "id":"tpq0953",
            "location":{
                "lat":25.032323,
                "lng":121.4741372
            },
            "name":"江翠國小",
            "neighborhood":[
                "柏翠里"
            ],
            "power":7
        },
        {
            "address":"溪頭街臨356之1號",
            "id":"tpq0954",
            "location":{
                "lat":25.032727864,
                "lng":121.467676163
            },
            "name":"溪頭公園（潮和社館）",
            "neighborhood":[
                "溪頭里"
            ],
            "power":1
        },
        {
            "address":"長江路一段130號",
            "id":"tpq0961",
            "location":{
                "lat":25.0298915,
                "lng":121.460309
            },
            "name":"民宅",
            "neighborhood":[
                "宏翠里"
            ],
            "power":1
        },
        {
            "address":"長江路一段156巷9弄17號",
            "id":"tpq0962",
            "location":{
                "lat":25.0304092,
                "lng":121.4619292
            },
            "name":"民宅",
            "neighborhood":[
                "宏翠里"
            ],
            "power":1
        },
        {
            "address":"民生路三段315號",
            "id":"tpq0963",
            "location":{
                "lat":25.0308763,
                "lng":121.4635709
            },
            "name":"民宅（巨蛋東京花園社區中庭）",
            "neighborhood":[
                "宏翠里"
            ],
            "power":1
        },
        {
            "address":"長江路一段106巷13弄32號",
            "id":"tpq0964",
            "location":{
                "lat":25.0295711,
                "lng":121.4612766
            },
            "name":"新南宮",
            "neighborhood":[
                "仁翠里"
            ],
            "power":1
        },
        {
            "address":"四維路291巷2弄12號",
            "id":"tpq0965",
            "location":{
                "lat":25.0285519,
                "lng":121.462893
            },
            "name":"民宅",
            "neighborhood":[
                "仁翠里"
            ],
            "power":1
        },
        {
            "address":"裕民街91號",
            "id":"tpq0973",
            "location":{
                "lat":25.0279711,
                "lng":121.4603683
            },
            "name":"北天宮",
            "neighborhood":[
                "吉翠里"
            ],
            "power":1
        },
        {
            "address":"裕民街120號",
            "id":"tpq0974",
            "location":{
                "lat":25.027652,
                "lng":121.459122
            },
            "name":"裕民大樓會議室",
            "neighborhood":[
                "吉翠里"
            ],
            "power":1
        },
        {
            "address":"長江路一段106巷10號",
            "id":"tpq0975",
            "location":{
                "lat":25.029121,
                "lng":121.459747
            },
            "name":"慈后宮活動中心",
            "neighborhood":[
                "吉翠里"
            ],
            "power":1
        },
        {
            "address":"綠堤街38號",
            "id":"tpq0976",
            "location":{
                "lat":25.026350698,
                "lng":121.455831528
            },
            "name":"新海福德宮（管理委員會）",
            "neighborhood":[
                "德翠里"
            ],
            "power":2
        },
        {
            "address":"龍泉街90巷1號",
            "id":"tpq0978",
            "location":{
                "lat":25.02486,
                "lng":121.45635
            },
            "name":"太陽村社區（會議室）",
            "neighborhood":[
                "德翠里"
            ],
            "power":1
        },
        {
            "address":"龍泉街108巷138號",
            "id":"tpq0979",
            "location":{
                "lat":25.0241207,
                "lng":121.4557217
            },
            "name":"大貴社區1樓交誼廳",
            "neighborhood":[
                "德翠里"
            ],
            "power":1
        },
        {
            "address":"民生路三段263巷2弄6號",
            "id":"tpq0985",
            "location":{
                "lat":25.0296744,
                "lng":121.4639921
            },
            "name":"貴格會新埔教育館",
            "neighborhood":[
                "滿翠里"
            ],
            "power":1
        },
        {
            "address":"文聖街86號",
            "id":"tpq0990",
            "location":{
                "lat":25.0292015,
                "lng":121.4776974
            },
            "name":"文聖國小",
            "neighborhood":[
                "松柏里"
            ],
            "power":14
        },
        {
            "address":"莒光路163號",
            "id":"tpq0999",
            "location":{
                "lat":25.0250177,
                "lng":121.4743397
            },
            "name":"莒光國小",
            "neighborhood":[
                "華翠里"
            ],
            "power":7
        },
        {
            "address":"莊敬路62號",
            "id":"tpq1006",
            "location":{
                "lat":25.0261073,
                "lng":121.4723354
            },
            "name":"藝文中心",
            "neighborhood":[
                "莒光里"
            ],
            "power":2
        },
        {
            "address":"民治街36之2號",
            "id":"tpq1012",
            "location":{
                "lat":25.0339479,
                "lng":121.478076
            },
            "name":"文翠市民活動中心",
            "neighborhood":[
                "文翠里"
            ],
            "power":1
        },
        {
            "address":"文化路二段654號之11",
            "id":"tpq1015",
            "location":{
                "lat":25.0355632,
                "lng":121.4786264
            },
            "name":"青翠柏翠嵐翠市民活動中心",
            "neighborhood":[
                "文翠里"
            ],
            "power":2
        },
        {
            "address":"萬板路812之1號",
            "id":"tpq1020",
            "location":{
                "lat":25.0239167,
                "lng":121.4761206
            },
            "name":"福翠市民活動中心",
            "neighborhood":[
                "永安里"
            ],
            "power":1
        },
        {
            "address":"縣民大道三段245號之1",
            "id":"tpq1021",
            "location":{
                "lat":25.025918089,
                "lng":121.481425166
            },
            "name":"港嘴地區活動中心",
            "neighborhood":[
                "港嘴里"
            ],
            "power":5
        },
        {
            "address":"縣民大道三段33號之1",
            "id":"tpq1025",
            "location":{
                "lat":25.0214154,
                "lng":121.4738745
            },
            "name":"埤墘地區五里聯合活動中心",
            "neighborhood":[
                "埤墘里"
            ],
            "power":2
        },
        {
            "address":"民生路二段120號",
            "id":"tpq1027",
            "location":{
                "lat":25.0196868,
                "lng":121.4708615
            },
            "name":"莊敬公園活動中心",
            "neighborhood":[
                "莊敬里"
            ],
            "power":1
        },
        {
            "address":"縣民大道三段33巷9弄7號",
            "id":"tpq1028",
            "location":{
                "lat":25.0209227,
                "lng":121.4733012
            },
            "name":"民宅",
            "neighborhood":[
                "莊敬里"
            ],
            "power":1
        },
        {
            "address":"雙十路一段25號",
            "id":"tpq1029",
            "location":{
                "lat":25.0244138,
                "lng":121.477489
            },
            "name":"永安公園活動中心",
            "neighborhood":[
                "永安里"
            ],
            "power":2
        },
        {
            "address":"翠華街6巷86號",
            "id":"tpq1031",
            "location":{
                "lat":25.024999,
                "lng":121.4812699
            },
            "name":"民宅（車庫）",
            "neighborhood":[
                "振興里"
            ],
            "power":1
        },
        {
            "address":"中山路二段505巷56號邊",
            "id":"tpq1032",
            "location":{
                "lat":25.015553,
                "lng":121.473789
            },
            "name":"坡仔公廟前老人休閒中心",
            "neighborhood":[
                "振興里"
            ],
            "power":1
        },
        {
            "address":"萬安街124巷4號",
            "id":"tpq1034",
            "location":{
                "lat":25.0225129,
                "lng":121.484894
            },
            "name":"北天廟",
            "neighborhood":[
                "振義里"
            ],
            "power":1
        },
        {
            "address":"中山路二段565巷29號",
            "id":"tpq1035",
            "location":{
                "lat":25.0227314,
                "lng":121.4838593
            },
            "name":"板橋逢元宮",
            "neighborhood":[
                "振義里"
            ],
            "power":1
        },
        {
            "address":"翠華街12巷1號",
            "id":"tpq1036",
            "location":{
                "lat":25.0245564,
                "lng":121.4827769
            },
            "name":"紅雲府",
            "neighborhood":[
                "振義里"
            ],
            "power":1
        },
        {
            "address":"光復街192巷11號",
            "id":"tpq1037",
            "location":{
                "lat":25.0201072,
                "lng":121.4860001
            },
            "name":"真武廟自強樓右側（廟前空地）",
            "neighborhood":[
                "光復里"
            ],
            "power":2
        },
        {
            "address":"光復街2號",
            "id":"tpq1039",
            "location":{
                "lat":25.0193033,
                "lng":121.4811127
            },
            "name":"埔墘市民活動中心",
            "neighborhood":[
                "埔墘里"
            ],
            "power":1
        },
        {
            "address":"中山路二段326號",
            "id":"tpq1040",
            "location":{
                "lat":25.019616,
                "lng":121.4811207
            },
            "name":"中山首府後側門",
            "neighborhood":[
                "埔墘里"
            ],
            "power":1
        },
        {
            "address":"中山路二段255巷18號",
            "id":"tpq1041",
            "location":{
                "lat":25.0181135,
                "lng":121.4767479
            },
            "name":"光仁中學（國三愛）",
            "neighborhood":[
                "埔墘里"
            ],
            "power":3
        },
        {
            "address":"中山路二段443巷30號",
            "id":"tpq1042",
            "location":{
                "lat":25.0210583,
                "lng":121.4811463
            },
            "name":"台北慈德宮",
            "neighborhood":[
                "埔墘里"
            ],
            "power":1
        },
        {
            "address":"光環路一段7號",
            "id":"tpq1043",
            "location":{
                "lat":25.0165515,
                "lng":121.4821605
            },
            "name":"光復國中",
            "neighborhood":[
                "富貴里"
            ],
            "power":6
        },
        {
            "address":"民生路一段30之1號2樓",
            "id":"tpq1047",
            "location":{
                "lat":25.0133319,
                "lng":121.475955
            },
            "name":"板橋區體育館（民生分館）",
            "neighborhood":[
                "福壽里"
            ],
            "power":1
        },
        {
            "address":"三民路二段居仁巷2弄50號",
            "id":"tpq1048",
            "location":{
                "lat":25.0132839,
                "lng":121.4793961
            },
            "name":"福壽市民活動中心",
            "neighborhood":[
                "福壽里"
            ],
            "power":1
        },
        {
            "address":"漢生東路215號",
            "id":"tpq1051",
            "location":{
                "lat":25.0095167,
                "lng":121.4719268
            },
            "name":"海山高中（忠孝樓70教室）",
            "neighborhood":[
                "海山里"
            ],
            "power":4
        },
        {
            "address":"民生路一段33號",
            "id":"tpq1055",
            "location":{
                "lat":25.0120329,
                "lng":121.475698
            },
            "name":"正隆廣場",
            "neighborhood":[
                "海山里"
            ],
            "power":1
        },
        {
            "address":"中山路二段250巷1號",
            "id":"tpq1056",
            "location":{
                "lat":25.0028459,
                "lng":121.497464
            },
            "name":"埔墘第二市民活動中心",
            "neighborhood":[
                "九如里"
            ],
            "power":1
        },
        {
            "address":"中山路二段250巷1號（對面）",
            "id":"tpq1057",
            "location":{
                "lat":25.0028459,
                "lng":121.497464
            },
            "name":"埔墘福德宮（康樂台）",
            "neighborhood":[
                "九如里"
            ],
            "power":1
        },
        {
            "address":"三民路二段正隆巷12弄23號",
            "id":"tpq1058",
            "location":{
                "lat":25.0137002,
                "lng":121.4774277
            },
            "name":"民宅",
            "neighborhood":[
                "正泰里"
            ],
            "power":1
        },
        {
            "address":"三民路二段正泰3巷23號",
            "id":"tpq1059",
            "location":{
                "lat":25.0140096,
                "lng":121.4778127
            },
            "name":"民宅",
            "neighborhood":[
                "正泰里"
            ],
            "power":1
        },
        {
            "address":"永豐街42之8號",
            "id":"tpq1060",
            "location":{
                "lat":25.0181471,
                "lng":121.4741019
            },
            "name":"埔墘國小",
            "neighborhood":[
                "玉光里"
            ],
            "power":4
        },
        {
            "address":"民生路二段臨56號之3",
            "id":"tpq1061",
            "location":{
                "lat":25.0193783,
                "lng":121.4708178
            },
            "name":"玉光市民活動中心",
            "neighborhood":[
                "玉光里"
            ],
            "power":2
        },
        {
            "address":"永豐街124號",
            "id":"tpq1065",
            "location":{
                "lat":25.0210838,
                "lng":121.477063
            },
            "name":"永豐公園活動中心",
            "neighborhood":[
                "雙玉里"
            ],
            "power":2
        },
        {
            "address":"漢生東路280號",
            "id":"tpq1070",
            "location":{
                "lat":25.0094961,
                "lng":121.4708924
            },
            "name":"海山國小",
            "neighborhood":[
                "深丘里"
            ],
            "power":7
        },
        {
            "address":"中山路一段293之1號",
            "id":"tpq1074",
            "location":{
                "lat":25.014615,
                "lng":121.470498
            },
            "name":"久揚天廈（會議室）",
            "neighborhood":[
                "香丘里"
            ],
            "power":3
        },
        {
            "address":"民生路二段89之1號",
            "id":"tpq1077",
            "location":{
                "lat":25.017439,
                "lng":121.471433
            },
            "name":"西安市民活動中心",
            "neighborhood":[
                "西安里"
            ],
            "power":2
        },
        {
            "address":"民生路一段30號",
            "id":"tpq1079",
            "location":{
                "lat":25.0133319,
                "lng":121.475955
            },
            "name":"民生公園活動中心",
            "neighborhood":[
                "東丘里"
            ],
            "power":1
        },
        {
            "address":"民生路一段30之1號",
            "id":"tpq1080",
            "location":{
                "lat":25.0133319,
                "lng":121.475955
            },
            "name":"板橋區體育館（民生分館）",
            "neighborhood":[
                "東丘里"
            ],
            "power":2
        },
        {
            "address":"板新路74號",
            "id":"tpq1082",
            "location":{
                "lat":25.0143146,
                "lng":121.4730232
            },
            "name":"民宅（義橋宮）",
            "neighborhood":[
                "民生里"
            ],
            "power":1
        },
        {
            "address":"民生路一段115號",
            "id":"tpq1083",
            "location":{
                "lat":25.0145638,
                "lng":121.473972
            },
            "name":"民宅（聖仁宮）",
            "neighborhood":[
                "民生里"
            ],
            "power":1
        },
        {
            "address":"中山路一段206巷6號",
            "id":"tpq1084",
            "location":{
                "lat":25.012776,
                "lng":121.470229
            },
            "name":"新北市私立祥寶老人養護中心",
            "neighborhood":[
                "長安里"
            ],
            "power":1
        },
        {
            "address":"長安街331巷58號旁",
            "id":"tpq1085",
            "location":{
                "lat":25.0132729,
                "lng":121.473561
            },
            "name":"長安里資源回收站",
            "neighborhood":[
                "長安里"
            ],
            "power":1
        },
        {
            "address":"板新路37至69號",
            "id":"tpq1086",
            "location":{
                "lat":25.0126184,
                "lng":121.4753299
            },
            "name":"新站巴黎社區",
            "neighborhood":[
                "長安里"
            ],
            "power":1
        },
        {
            "address":"長安街331巷5弄12號旁",
            "id":"tpq1087",
            "location":{
                "lat":25.0124679,
                "lng":121.474315
            },
            "name":"東安里臨時活動中心",
            "neighborhood":[
                "東安里"
            ],
            "power":2
        },
        {
            "address":"中山路一段50巷40號",
            "id":"tpq1089",
            "location":{
                "lat":25.0086649,
                "lng":121.460633
            },
            "name":"金吉第大廈會議室",
            "neighborhood":[
                "福丘里"
            ],
            "power":1
        },
        {
            "address":"中山路一段143號",
            "id":"tpq1090",
            "location":{
                "lat":25.0115767,
                "lng":121.46419
            },
            "name":"新北市稅捐稽徵處",
            "neighborhood":[
                "福丘里"
            ],
            "power":1
        },
        {
            "address":"實踐路93巷51號",
            "id":"tpq1091",
            "location":{
                "lat":25.0049815,
                "lng":121.4663974
            },
            "name":"實踐國小",
            "neighborhood":[
                "福祿里"
            ],
            "power":5
        },
        {
            "address":"重慶路157號",
            "id":"tpq1098",
            "location":{
                "lat":25.0033516,
                "lng":121.4626692
            },
            "name":"後埔國小",
            "neighborhood":[
                "後埔里"
            ],
            "power":3
        },
        {
            "address":"忠孝路忠義巷9弄1之1號",
            "id":"tpq1101",
            "location":{
                "lat":25.0046669,
                "lng":121.4650723
            },
            "name":"福泰社區活動中心",
            "neighborhood":[
                "福德里"
            ],
            "power":1
        },
        {
            "address":"成都街30號",
            "id":"tpq1103",
            "location":{
                "lat":25.0048364,
                "lng":121.4616477
            },
            "name":"忠孝國中",
            "neighborhood":[
                "景星里"
            ],
            "power":6
        },
        {
            "address":"大華街168號",
            "id":"tpq1107",
            "location":{
                "lat":25.0036921,
                "lng":121.4592456
            },
            "name":"鄉雲市民活動中心",
            "neighborhood":[
                "鄉雲里"
            ],
            "power":1
        },
        {
            "address":"大明街15巷15號",
            "id":"tpq1108",
            "location":{
                "lat":25.0021828,
                "lng":121.4585768
            },
            "name":"宏法禪寺",
            "neighborhood":[
                "鄉雲里"
            ],
            "power":1
        },
        {
            "address":"重慶路355號",
            "id":"tpq1109",
            "location":{
                "lat":24.9977051,
                "lng":121.4642959
            },
            "name":"和平公園活動中心",
            "neighborhood":[
                "廣德里"
            ],
            "power":1
        },
        {
            "address":"重慶路245巷32弄18號",
            "id":"tpq1110",
            "location":{
                "lat":25.0001428,
                "lng":121.4653127
            },
            "name":"重慶公園活動中心",
            "neighborhood":[
                "廣德里"
            ],
            "power":2
        },
        {
            "address":"國慶路120號",
            "id":"tpq1112",
            "location":{
                "lat":24.9981868,
                "lng":121.4631303
            },
            "name":"重慶國中",
            "neighborhood":[
                "廣德里"
            ],
            "power":11
        },
        {
            "address":"忠孝路48巷5弄4號",
            "id":"tpq1114",
            "location":{
                "lat":25.0005411,
                "lng":121.4616186
            },
            "name":"大豐市民活動中心",
            "neighborhood":[
                "大豐里"
            ],
            "power":1
        },
        {
            "address":"廣和街31號",
            "id":"tpq1124",
            "location":{
                "lat":24.9944625,
                "lng":121.4624227
            },
            "name":"重慶國小",
            "neighborhood":[
                "和平里"
            ],
            "power":7
        },
        {
            "address":"南雅南路二段1之1號",
            "id":"tpq1131",
            "location":{
                "lat":25.0033969,
                "lng":121.454693
            },
            "name":"南雅公園活動中心",
            "neighborhood":[
                "華興里"
            ],
            "power":2
        },
        {
            "address":"大明街20巷19弄13號",
            "id":"tpq1133",
            "location":{
                "lat":25.003089,
                "lng":121.457969
            },
            "name":"華貴市民活動中心",
            "neighborhood":[
                "華貴里"
            ],
            "power":2
        },
        {
            "address":"四川路二段245巷60號",
            "id":"tpq1137",
            "location":{
                "lat":24.9917854,
                "lng":121.4526816
            },
            "name":"信義國小",
            "neighborhood":[
                "華德里"
            ],
            "power":4
        },
        {
            "address":"南雅南路二段4巷2號",
            "id":"tpq1141",
            "location":{
                "lat":24.99963,
                "lng":121.453285
            },
            "name":"聖成宮活動中心",
            "neighborhood":[
                "華東里"
            ],
            "power":1
        },
        {
            "address":"四川路二段58號",
            "id":"tpq1142",
            "location":{
                "lat":24.995194,
                "lng":121.4531189
            },
            "name":"亞東技術學院（誠勤大樓1F羽球場）",
            "neighborhood":[
                "華東里"
            ],
            "power":1
        },
        {
            "address":"四川路二段130巷32號",
            "id":"tpq1143",
            "location":{
                "lat":24.9944802,
                "lng":121.4496555
            },
            "name":"華東市民活動中心",
            "neighborhood":[
                "華東里"
            ],
            "power":1
        },
        {
            "address":"信義路164之2號",
            "id":"tpq1144",
            "location":{
                "lat":24.9912799,
                "lng":121.45922
            },
            "name":"廣厚宮",
            "neighborhood":[
                "信義里"
            ],
            "power":1
        },
        {
            "address":"信義路150巷43之1號",
            "id":"tpq1145",
            "location":{
                "lat":24.9916865,
                "lng":121.4574715
            },
            "name":"信義公園活動中心",
            "neighborhood":[
                "信義里"
            ],
            "power":2
        },
        {
            "address":"大觀路一段30號",
            "id":"tpq1147",
            "location":{
                "lat":25.0085816,
                "lng":121.4494217
            },
            "name":"大觀國小",
            "neighborhood":[
                "浮洲里"
            ],
            "power":3
        },
        {
            "address":"僑中一街80巷7弄1號",
            "id":"tpq1150",
            "location":{
                "lat":25.0127479,
                "lng":121.447659
            },
            "name":"台大幼兒園",
            "neighborhood":[
                "華中里"
            ],
            "power":1
        },
        {
            "address":"僑中一街124巷3弄16號",
            "id":"tpq1151",
            "location":{
                "lat":25.012642,
                "lng":121.4453059
            },
            "name":"天藍幼兒園",
            "neighborhood":[
                "華中里"
            ],
            "power":1
        },
        {
            "address":"僑中一街102巷7弄1號",
            "id":"tpq1152",
            "location":{
                "lat":25.0128548,
                "lng":121.446756
            },
            "name":"華中市民活動中心",
            "neighborhood":[
                "華中里"
            ],
            "power":1
        },
        {
            "address":"僑中二街102巷44號",
            "id":"tpq1153",
            "location":{
                "lat":25.0086777,
                "lng":121.4445456
            },
            "name":"民宅",
            "neighborhood":[
                "僑中里"
            ],
            "power":1
        },
        {
            "address":"僑中二街106巷4號",
            "id":"tpq1154",
            "location":{
                "lat":25.0076558,
                "lng":121.4456699
            },
            "name":"民宅",
            "neighborhood":[
                "僑中里"
            ],
            "power":1
        },
        {
            "address":"僑中二街152號",
            "id":"tpq1155",
            "location":{
                "lat":25.0044419,
                "lng":121.4448518
            },
            "name":"民宅（浮洲車站對面）",
            "neighborhood":[
                "僑中里"
            ],
            "power":1
        },
        {
            "address":"僑中一街1號",
            "id":"tpq1156",
            "location":{
                "lat":25.0111269,
                "lng":121.4489382
            },
            "name":"大觀國中",
            "neighborhood":[
                "大觀里"
            ],
            "power":2
        },
        {
            "address":"大觀路一段38巷156弄39號",
            "id":"tpq1158",
            "location":{
                "lat":25.0059319,
                "lng":121.442582
            },
            "name":"土地公廟前舊活動中心",
            "neighborhood":[
                "歡園里"
            ],
            "power":1
        },
        {
            "address":"大觀路二段59巷31號",
            "id":"tpq1159",
            "location":{
                "lat":25.002234,
                "lng":121.4477191
            },
            "name":"中山國小",
            "neighborhood":[
                "中山里"
            ],
            "power":6
        },
        {
            "address":"大觀路二段32號",
            "id":"tpq1162",
            "location":{
                "lat":25.0012464,
                "lng":121.4456657
            },
            "name":"板橋榮家大門口左側",
            "neighborhood":[
                "復興里"
            ],
            "power":2
        },
        {
            "address":"大觀路二段431之1號",
            "id":"tpq1167",
            "location":{
                "lat":24.9982668,
                "lng":121.4410081
            },
            "name":"三抱竹聯合廣場（左側）",
            "neighborhood":[
                "福安里"
            ],
            "power":2
        },
        {
            "address":"大觀路一段38巷1之5號",
            "id":"tpq1169",
            "location":{
                "lat":25.004492,
                "lng":121.442817
            },
            "name":"歡仔園活動中心",
            "neighborhood":[
                "聚安里"
            ],
            "power":4
        },
        {
            "address":"大觀路二段162號",
            "id":"tpq1173",
            "location":{
                "lat":24.9987586,
                "lng":121.4414529
            },
            "name":"聚安宮",
            "neighborhood":[
                "龍安里"
            ],
            "power":2
        },
        {
            "address":"篤行路二段132號",
            "id":"tpq1175",
            "location":{
                "lat":24.9897464,
                "lng":121.4305412
            },
            "name":"沙崙國小",
            "neighborhood":[
                "崑崙里"
            ],
            "power":7
        },
        {
            "address":"大觀路三段240號",
            "id":"tpq1178",
            "location":{
                "lat":24.993106,
                "lng":121.4294477
            },
            "name":"崑崙公園活動中心",
            "neighborhood":[
                "崑崙里"
            ],
            "power":2
        },
        {
            "address":"金門街289號",
            "id":"tpq1183",
            "location":{
                "lat":24.9873416,
                "lng":121.4308822
            },
            "name":"溪洲國小",
            "neighborhood":[
                "溪洲里"
            ],
            "power":10
        },
        {
            "address":"溪崑二街73巷1號",
            "id":"tpq1192",
            "location":{
                "lat":24.990269,
                "lng":121.428422
            },
            "name":"北極宮長壽會館",
            "neighborhood":[
                "溪北里"
            ],
            "power":1
        },
        {
            "address":"金門街253巷10弄7號",
            "id":"tpq1195",
            "location":{
                "lat":24.9882893,
                "lng":121.4330954
            },
            "name":"溪崑社區活動中心",
            "neighborhood":[
                "堂春里"
            ],
            "power":1
        }
    ]
}
